[
{"id":60,"name":"Hospital del Mar","lat":41.383644,"lng":2.194836,"city":"Barcelona","address":"Passeig Marítim de la Barceloneta, 25","state":"Barcelona","phone":"932 48 30 00","web":"http://www.parcdesalutmar.cat/hospitals/hospital-del-mar/"},
{"id":100,"name":"Hospital Universitario Fundación Jiménez Díaz","lat":40.438589,"lng":-3.718894,"city":"Madrid","address":"Av. de los Reyes Católicos, 2","state":"Madrid","phone":"915 50 48 00","web":"http://www.fjd.es/"},
{"id":3,"name":"Complejo Asistencial de Zamora","lat":41.51431,"lng":-5.73225,"city":"Zamora","address":"Avda. Requejo, 35","state":"Zamora","phone":"980 54 82 00","web":"http://www.saludcastillayleon.es/CAZamora/en"},
{"id":28,"name":"Complejo Hospitalario Universitario de Santiago","lat":42.868229,"lng":-8.561368,"city":"Santiago de Compostela","address":"Choupana, s/n","state":"A Coruña","phone":"981 95 00 00","web":"http://www.usc.es/es/servizos/chus/"},
{"id":4,"name":"Complejo Asistencial de Avila","lat":40.668987,"lng":-4.658209,"city":"Ávila","address":"Avda. Juan Carlos I, s/n","state":"Ávila","phone":"920 35 80 00 (Derma 920 35 80 81)","web":"http://www.saludcastillayleon.es/CAAvila/en"},
{"id":5,"name":"Complejo Asistencial de Segovia","lat":40.94268,"lng":-4.128753,"city":"Segovia","address":"Miguel Servet, s/n","state":"Segovia","phone":"921 41 91 00","web":"http://www.saludcastillayleon.es/CASegovia/en"},
{"id":6,"name":"Complejo Asistencial de Soria","lat":41.76883,"lng":-2.47002,"city":"Soria","address":"Pº. Sta. Barbara, s/n","state":"Soria","phone":"975 23 43 00","web":"http://www.saludcastillayleon.es/CASoria/en"},
{"id":44,"name":"Hospital Clínico Universitario Lozano Blesa","lat":41.643697,"lng":-0.903625,"city":"Zaragoza","address":"San Juan Bosco, 15","state":"Zaragoza","phone":"976 76 57 00","web":"http://www.hcuz.es/"},
{"id":7,"name":"Complejo Asistencial Son Espases","lat":39.593113,"lng":2.647775,"city":"Palma de Mallorca","address":"Carretera Valldemossa, 79","state":"Illes Balears","phone":"871 20 50 00","web":"http://www.hospitalsonespases.es/"},
{"id":8,"name":"Complejo Asistencial Universitario de Burgos","lat":42.352006,"lng":-3.694566,"city":"Burgos","address":"Avda. del Cid, 96","state":"Burgos","phone":"947 28 18 00","web":"http://www.saludcastillayleon.es/CABurgos/en/"},
{"id":9,"name":"Complejo Asistencial Universitario de León","lat":42.619095,"lng":-5.572225,"city":"León","address":"Altos de la Nava s/n","state":"León","phone":"987 23 74 00","web":"http://www.saludcastillayleon.es/CHLeon/es"},
{"id":10,"name":"Complejo Asistencial Universitario de Salamanca","lat":40.964113,"lng":-5.673002,"city":"Salamanca","address":"Pº de San Vicente, 58-182","state":"Salamanca","phone":"923 29 11 00","web":"http://www.saludcastillayleon.es/CASalamanca/es"},
{"id":11,"name":"Complejo Hospital Costa del Sol","lat":37.997231,"lng":-1.23475,"city":"Marbella","address":"Autovía A-7, km 187","state":"Malaga","phone":"951 97 66 69","web":"https://www.hcs.es"},
{"id":12,"name":"Complejo Hospital San Pedro ","lat":42.453902,"lng":-2.426366,"city":"Logroño","address":"Piqueras, 98","state":"La Rioja","phone":"941 29 80 00","web":"https://www.riojasalud.es/ciudadanos/centros-y-servicios/hospital-san-pedro"},
{"id":13,"name":"Complejo Hospital Universitario Ntra. Sra. de Candelaria","lat":28.448563,"lng":-16.284564,"city":"Santa Cruz de Tenerife","address":"Ctra. del Rosario, 145","state":"Santa Cruz de Tenerife","phone":"922 60 20 00","web":"http://www3.gobiernodecanarias.org/sanidad/scs/organica.jsp?idCarpeta=10b3ea46-541b-11de-9665-998e1388f7ed"},
{"id":75,"name":"Hospital Nuestra Señora del Prado","lat":39.959287,"lng":-4.919554,"city":"Talavera de la Reina","address":"Ctra. de Madrid, km 114","state":"Toledo","phone":"925 80 36 00","web":"http://www.areasaludtalavera.es/"},
{"id":14,"name":"Complejo Hospitalario de Jaén","lat":37.774437,"lng":-3.791266,"city":"Jaén","address":"Av. del Ejército Español, 10","state":"Jaén","phone":"953 00 80 00","web":"http://www.juntadeandalucia.es/servicioandaluzdesalud/chj/"},
{"id":15,"name":"Complejo Hospitalario de Cáceres","lat":39.465351,"lng":-6.367547,"city":"Cáceres","address":"Av.Pablo Naranjo, s/n","state":"Cáceres","phone":"927 25 62 00","web":"http://www.areasaludcaceres.es/modulos/mod_organigrama/pub/ficha_centros.php?id=148&zona=area&color=area"},
{"id":34,"name":"Consorcio Hospital General Universitario de Valencia ","lat":39.445992,"lng":-0.383263,"city":"Valencia","address":"Av. Tres Cruces, s/n","state":"València","phone":"963 13 18 00","web":"http://chguv.san.gva.es/inicio"},
{"id":16,"name":"Complejo Hospitalario de Especialidades Juan Ramón Jimenez","lat":37.262122,"lng":-6.959538,"city":"Huelva","address":"Ronda Norte, s/n","state":"Huelva","phone":"959 01 60 00","web":"http://www.juntadeandalucia.es/servicioandaluzdesalud/centros/detalle.asp?IdCentro=16449"},
{"id":17,"name":"Complejo Hospitalario de Especialidades Virgen de Valme","lat":37.32697,"lng":-5.96872,"city":"Sevilla","address":"Ctra. de Cádiz, km 548,9","state":"Sevilla","phone":"955 01 50 00","web":"http://www.ahvalme.org/agsss/"},
{"id":18,"name":"Complejo Hospitalario de Navarra","lat":42.805053,"lng":-1.667108,"city":"Pamplona/Iruña","address":"Irunlarrea, 3","state":"Navarra","phone":"848 42 22 22","web":"http://www.pamplona.es/verPagina.asp?idPag=20-36806"},
{"id":19,"name":"Complejo Hospitalario dr. Negrin","lat":28.113522,"lng":-15.446899,"city":"Las Palmas de Gran Canaria","address":"Barranco de la Ballena, s/n","state":"Las Palmas","phone":"928 45 00 00","web":"http://www3.gobiernodecanarias.org/sanidad/scs/organica.jsp?idCarpeta=887001ae-541d-11de-9665-998e1388f7ed"},
{"id":20,"name":"Complejo Hospitalario Regional de Málaga","lat":36.709665,"lng":-4.444332,"city":"Málaga","address":"Av. Carlos Haya, s/n","state":"Malaga","phone":"951 29 00 00","web":"http://www.hospitalregionaldemalaga.es/"},
{"id":21,"name":"Complejo Hospitalario Regional Reina Sofía","lat":37.865962,"lng":-4.795903,"city":"Córdoba","address":"Av. Menéndez Pidal, s/n","state":"Córdoba","phone":"957 01 00 00","web":"http://www.juntadeandalucia.es/servicioandaluzdesalud/hrs3/index.php?id=3016"},
{"id":22,"name":"Complejo Hospitalario Regional Virgen de Las Nieves","lat":37.188843,"lng":-3.609358,"city":"Granada","address":"Av. Fuerzas Armadas, 2","state":"Granada","phone":"958 02 00 00","web":"http://www.hvn.es/comp_hospitalario/"},
{"id":76,"name":"Hospital Obispo Polanco","lat":40.333156,"lng":-1.107553,"city":"Teruel","address":"Av. Ruiz Jarabo, s/n","state":"Teruel","phone":"978 65 40 00","web":"http://www.opolanco.es/"},
{"id":25,"name":"Complejo Hospitalario Universitario de Albacete","lat":38.982961,"lng":-1.852305,"city":"Albacete","address":"Hermanos Falcó, s/n","state":"Albacete","phone":"967 59 71 00","web":"http://www.chospab.es/"},
{"id":26,"name":"Complejo Hospitalario Universitario de Canarias","lat":28.460755,"lng":-16.29324,"city":"San Cristóbal de La Laguna","address":"Ofra, s/n","state":"Santa Cruz de Tenerife","phone":"922 67 80 00","web":"http://www3.gobiernodecanarias.org/sanidad/scs/organica.jsp?idCarpeta=3da5f513-541b-11de-9665-998e1388f7ed"},
{"id":27,"name":"Complejo Hospitalario Universitario de Cartagena","lat":37.60736,"lng":-0.976305,"city":"Cartagena","address":"Pº Alfonso XIII, 61","state":"Murcia","phone":"968 32 50 00","web":"http://www.murciasalud.es/seccion.php?idsec=78"},
{"id":29,"name":"Complejo Hospitalario Universitario de Vigo","lat":42.231368,"lng":-8.71342,"city":"Vigo","address":"Pizarro, 22","state":"Pontevedra","phone":"986 81 11 11","web":"http://chuvi.sergas.es/ga/Inicio/Paginas/Inicio.aspx"},
{"id":30,"name":"Complejo Hospitalario Xeral-calde","lat":43.44435,"lng":-5.817612,"city":"Lugo","address":"Dr. Severo Ochoa, s/n","state":"Lugo","phone":"982 29 60 00","web":"http://www.sergas.es/"},
{"id":31,"name":"Complejo Universitario de San Carlos","lat":40.439643,"lng":-3.719108,"city":"Madrid","address":"Prof. Martín Lagos, s/n","state":"Madrid","phone":"91 330 30 00 - 01","web":"http://www.madrid.org/cs/Satellite?language=es&pagename=HospitalClinicoSanCarlos%2FPage%2FHCLN_home"},
{"id":32,"name":"Complejo Universitario la Paz","lat":40.480719,"lng":-3.68638,"city":"Madrid","address":"Pº de la Castellana, 261","state":"Madrid","phone":"91 727 70 00","web":"http://www.madrid.org/cs/Satellite?language=es&pagename=HospitalLaPaz/Page/HPAZ_home"},
{"id":33,"name":"Complexo Hospitalario Universitario A Coruña","lat":43.3451,"lng":-8.3852,"city":"A Coruña","address":"Xubias de Arriba, 84","state":"A Coruña","phone":"981 17 80 00","web":"http://hospitalcoruna.sergas.es/Paginas/bienvenida.aspx"},
{"id":35,"name":"Fundació Hospital Sant Joan de Déu","lat":41.472154,"lng":1.920593,"city":"Martorell","address":"Av. Mancomunitats Comarcals, 1","state":"Barcelona","phone":"93 774 20 20","web":"http://es.hmartorell.es/"},
{"id":36,"name":"Fundacion Hospital Comarcal d'Inca","lat":39.717774,"lng":2.907547,"city":"Inca","address":"Crtra Vella de Llubi, s/n","state":"Illes Balears","phone":"971 88 85 14","web":"http://www.ibsalut.es/hcin/"},
{"id":37,"name":"Hospital de Especialidades de Puerto Real","lat":36.520235,"lng":-6.151308,"city":"Puerto Real","address":"Ctra. Nacional IV, km 665","state":"Cádiz","phone":"956 00 50 00","web":"http://www.juntadeandalucia.es/servicioandaluzdesalud/centros/Detalle.asp?IdCentro=16415&CodTipoCentro=1&CodPostal=&Municipio=&Provincia=11"},
{"id":38,"name":"Hospital Puerta del Mar","lat":36.508895,"lng":-6.27827,"city":"Cádiz","address":"Av. Ana de Viya, 21","state":"Cádiz","phone":"956 00 21 00","web":"http://www.juntadeandalucia.es/servicioandaluzdesalud/hpm/servicioandaluzdesalud/hpm2/puertadelmar/web/guest"},
{"id":39,"name":"Hospital Arnau de Vilanova","lat":39.49037,"lng":-0.40331,"city":"Valencia","address":"San Clemente, 12","state":"València","phone":"961 97 60 00","web":"http://www.san.gva.es/web/dgfps/ceic-del-hospital-arnau-de-vilanova"},
{"id":40,"name":"Hospital Can Misses","lat":39.039664,"lng":1.329269,"city":"Eivissa","address":"Corona, s/n","state":"Illes Balears","phone":"971 39 70 00","web":"http://www.asef.es/"},
{"id":41,"name":"Hospital Central de la Defensa Gomez Ulla","lat":40.387984,"lng":-3.745387,"city":"Madrid","address":"Glorieta del Ejército, s/n","state":"Madrid","phone":"914 22 20 00","web":"http://www.libreeleccion.sanidadmadrid.org/Seleccione/Hospital.aspx/2628?Hospital-Central-de-la-Defensa-G%C3%B3mez-Ulla"},
{"id":42,"name":"Hospital Clinic i Provincial de Barcelona","lat":41.389119,"lng":2.15178,"city":"Barcelona","address":"Villarroel, 170","state":"Barcelona","phone":"93 227 54 00","web":"http://www.hospitalclinic.org/"},
{"id":23,"name":"Complejo Hospitalario Regional Virgen del Rocío","lat":37.363106,"lng":-5.982628,"city":"Sevilla","address":"Av. Manuel Siurot, s/n","state":"Sevilla","phone":"955 01 20 00","web":"http://www.huvr.es/"},
{"id":24,"name":"Complejo Hospitalario Regional Virgen Macarena","lat":37.407278,"lng":-5.985675,"city":"Sevilla","address":"Av. Doctor Fedriani, 3","state":"Sevilla","phone":"955 00 80 00","web":"http://www.hospital-macarena.com/es/"},
{"id":43,"name":"Hospital Clinico Universitario de Valladolid","lat":41.655776,"lng":-4.719348,"city":"Valladolid","address":"Av. Ramón y Cajal, 3","state":"Valladolid","phone":"983 42 00 00","web":"http://www.saludcastillayleon.es/HCUValladolid/es"},
{"id":45,"name":"Hospital de Basurto","lat":43.260757,"lng":-2.953851,"city":"Bilbao","address":"Av. Montevideo, 18","state":"Vizcaya","phone":"944 00 60 00","web":"http://www.osakidetza.euskadi.eus/r85-ghhbas00/es/"},
{"id":46,"name":"Hospital de Cabueñes","lat":43.524649,"lng":-5.608653,"city":"Gijón","address":"Los Prados, 395","state":"Asturias","phone":"985 18 50 00","web":"http://www.gijon.es/directorios/show/797-hospital-de-cabuenes"},
{"id":1,"name":"Clínica Mútua de Terrasa","lat":41.563707,"lng":2.017053,"city":"Terrassa","address":"Pl. Doctor Robert, 5","state":"Barcelona","phone":"937 36 50 50","web":"http://www.mutuaterrassa.cat/"},
{"id":2,"name":"Clínica Universitaria Navarra","lat":42.805633,"lng":-1.662161,"city":"Pamplona","address":"Avda de Pío XII, 36","state":"Navarra","phone":"948 25 54 00","web":"http://www.cun.es/"},
{"id":47,"name":"Hospital de Especialidades de Jerez de la Frontera","lat":36.695676,"lng":-6.106256,"city":"Jerez de la Frontera","address":"Ronda de Circunvalacion, s/n","state":"Cádiz","phone":"956 03 20 00","web":"http://www.juntadeandalucia.es/servicioandaluzdesalud/centros/Detalle.asp?IdCentro=16418"},
{"id":48,"name":"Hospital de Guadix","lat":37.307717,"lng":-3.145694,"city":"Guadix","address":"Mariana Pineda, s/n","state":"Granada","phone":"958 69 91 00","web":"http://www.ephpo.es/hguadix"},
{"id":49,"name":"Hospital de la Agencia Valenciana de Salud Vega Baja","lat":38.090117,"lng":-0.855367,"city":"Orihuela","address":"Ctra. Orihuela-Almoradi, s/n","state":"Alacant","phone":"965 87 75 00","web":"http://www.dep21.san.gva.es/deporihuela/?page_id=9"},
{"id":50,"name":"Hospital de la Marina Baixa","lat":38.345996,"lng":-0.490686,"city":"Villajoyosa/Vila Joiosa (la)","address":"Av. Alcalde en Jaume Botella Mayor, 7","state":"Alacant","phone":"966 85 98 00","web":"http://www.dip-alicante.es/documentacion/pr_hospdetalle.asp?codigo=030204"},
{"id":51,"name":"Hospital de la Plana","lat":39.892392,"lng":-0.081693,"city":"Villarreal/Vila-real","address":"Crtra de Vila-Real a Borriana, km 0.5","state":"Castelló","phone":"964 35 76 00","web":"http://www.laplana.san.gva.es/"},
{"id":52,"name":"Hospital de la Santa Creu i Sant Pau","lat":41.412433,"lng":2.175701,"city":"Barcelona","address":"Sant Antoni Maria Claret, 167","state":"Barcelona","phone":"93 291 90 00","web":"http://www.santpau.es/hosp_nou.asp"},
{"id":53,"name":"Hospital de Manises","lat":39.4857,"lng":-0.45199,"city":"Manises","address":"Avda. Generalitat Valenciana, 50","state":"València","phone":"961 84 50 00","web":"http://www.hospitalmanises.es/"},
{"id":54,"name":"Hospital de Mataró","lat":41.555842,"lng":2.429079,"city":"Mataró","address":"Ct. Cirera, s/n","state":"Barcelona","phone":"937 41 77 00","web":"http://www.csdm.es/index.jsp?menuId=20&id=&jsp=home.jsp&subMenuId=20&menuActiu=2"},
{"id":55,"name":"Hospital de Sabadell","lat":41.556298,"lng":2.112253,"city":"Sabadell","address":"Parc Taulí, s/n","state":"Barcelona","phone":"93 723 10 10","web":"http://www.tauli.cat/hospital/"},
{"id":56,"name":"Hospital de Sagunto","lat":39.673166,"lng":-0.234026,"city":"Sagunto/Sagunt","address":"Av. Ramón y Cajal, s/n","state":"València","phone":"962 339 300","web":"http://www.dep4.san.gva.es/"},
{"id":57,"name":"Hospital de Sant Celoni","lat":41.68855,"lng":2.48587,"city":"Sant Celoni","address":"Av. de L' Hospital, 19","state":"Barcelona","phone":"938 67 03 17","web":"http://www.hsceloni.cat/"},
{"id":58,"name":"Hospital de Sant Joan Despí Moisés Broggi","lat":41.373734,"lng":2.071037,"city":"Sant Joan Despí","address":"Av. Jacint Verdaguer, 90","state":"Barcelona","phone":"935 53 12 00","web":"http://www.csi.cat/ciutadans/centres/hospital-moises-broggi/es_index.html"},
{"id":59,"name":"Hospital de Sant Pau i Santa Tecla","lat":41.116366,"lng":1.254933,"city":"Tarragona","address":"Rambla Vella, 14","state":"Tarragona","phone":"977 25 99 00","web":"http://www.xarxatecla.cat/portal/index.php?option=com_content&task=view&id=41&Itemid=77"},
{"id":61,"name":"Hospital del Vinalopo","lat":38.256207,"lng":-0.712679,"city":"Elche/Elx","address":"Tonico Sansano Mora, 14","state":"Alacant","phone":"966 67 98 00","web":"http://www.vinaloposalud.com/"},
{"id":62,"name":"Hospital Donostia-donostia Ospitalea","lat":43.292908,"lng":-1.968721,"city":"Donostia-San Sebastián","address":"Pº Dr. Beguiristain, 109","state":"Guipúzcoa","phone":"943 00 70 00","web":"http://www.osakidetza.euskadi.eus/r85-ghhdon00/es/"},
{"id":63,"name":"Hospital Galdakao-usansolo","lat":43.224276,"lng":-2.81812,"city":"Galdakao","address":"Barrio Labeaga, s/n","state":"Vizcaya","phone":"944 00 70 00","web":"http://www.osakidetza.euskadi.eus/r85-ghhgal00/es"},
{"id":64,"name":"Hospital General de Almansa","lat":38.870924,"lng":-1.088952,"city":"Almansa","address":"Avda. de circunvalación, s/n","state":"Albacete","phone":"967 33 99 50","web":"http://hgalmansa.sescam.jccm.es/halm/cm/almansa"},
{"id":65,"name":"Hospital General de Castelló","lat":39.999857,"lng":-0.040256,"city":"Castellón de la Plana/Castelló de la Plana","address":"Av. Benicasim, s/n","state":"Castelló","phone":"964 72 65 00","web":"http://castellon.san.gva.es/portada"},
{"id":66,"name":"Hospital General de Ciudad Real","lat":38.969916,"lng":-3.931979,"city":"Ciudad Real","address":"Obispo Rafael Torija, s/n","state":"Ciudad Real","phone":"926 27 80 00","web":"http://www.hgucr.es/"},
{"id":67,"name":"Hospital General de Elche","lat":38.269933,"lng":-0.712561,"city":"Elche/Elx","address":"Camí de L´Amàssera, 11","state":"Alacant","phone":"966 61 69 00","web":"http://www.elche.san.gva.es/"},
{"id":68,"name":"Hospital General de la Palma","lat":28.67236,"lng":-17.788526,"city":"Breña Alta","address":"Carretera La Cumbre, 28. Buenavista de Arriba","state":"Santa Cruz de Tenerife","phone":"922 18 50 00","web":"http://www3.gobiernodecanarias.org/sanidad/scs/scs/lp/at_especializada/hospital.jsp"},
{"id":69,"name":"Hospital General San Jorge","lat":42.132398,"lng":-0.417789,"city":"Huesca","address":"Av. Martínez de Velasco, 36","state":"Huesca","phone":"974 24 70 00","web":""},
{"id":70,"name":"Hospital General Universitario de Alicante","lat":38.363505,"lng":-0.485528,"city":"Alicante/Alacant","address":"Av. Pintor Baeza, 12","state":"Alacant","phone":"965 93 30 00","web":"http://alicante.san.gva.es/portada"},
{"id":71,"name":"Hospital General Universitario Gregorio Marañón","lat":40.419085,"lng":-3.669854,"city":"Madrid","address":"Dr Esquerdo, 46","state":"Madrid","phone":"915 86 80 00","web":"http://www.madrid.org/cs/Satellite?pagename=HospitalGregorioMaranon/Page/HGMA_home"},
{"id":72,"name":"Hospital General Universitario Reina Sofia","lat":37.982034,"lng":-1.121288,"city":"Murcia","address":"Av. Intendente Jorge Palacios, 1","state":"Murcia","phone":"968 35 90 00","web":"http://www.murciasalud.es/seccion.php?idsec=77"},
{"id":73,"name":"Hospital J.M. Morales Meseguer","lat":37.994494,"lng":-1.130385,"city":"Murcia","address":"Av. Marqués de los Vélez, s/n","state":"Murcia","phone":"968 36 09 00","web":"http://www.murciasalud.es/seccion.php?idsec=367"},
{"id":74,"name":"Hospital Lluis Alcanyís de Xativa","lat":38.989957,"lng":-0.523547,"city":"Xàtiva","address":"Ctra. Xàtiva-Silla, km 2","state":"València","phone":"962 28 95 00","web":"http://www.dip-alicante.es/documentacion/pr_hospdetalle.asp?codigo=460229"},
{"id":77,"name":"Hospital Rafael Méndez","lat":37.673593,"lng":-1.696836,"city":"Lorca","address":"Ctra. Nacional 340, km 589","state":"Murcia","phone":"968 44 55 00","web":"http://www.murciasalud.es/seccion.php?idsec=142"},
{"id":78,"name":"Hospital Ramón y Cajal","lat":40.58577,"lng":-3.70938,"city":"Madrid","address":"Ctra. de Colmenar Viejo, km 9.1","state":"Madrid","phone":"913 36 80 00","web":"http://www.madrid.org/cs/Satellite?pagename=HospitalRamonCajal/Page/HRYC_home"},
{"id":79,"name":"Hospital Reina Sofía","lat":41.999688,"lng":-1.67227,"city":"Tudela","address":"Ctra. Tudela-Tarazona, km 4","state":"Navarra","phone":"848 43 40 00","web":""},
{"id":80,"name":"Hospital Santa Caterina","lat":41.979401,"lng":2.821426,"city":"Salt","address":"Avda. Doctor Castany (P. H. Martí i Julià), s/n","state":"Girona","phone":"972 18 25 00","web":"http://www.ias.cat/ca/hospital"},
{"id":81,"name":"Hospital Universitari de Bellvitge","lat":41.346331,"lng":2.10112,"city":"L'Hospitalet de Llobregat","address":"Feixa Llarga, s/n","state":"Barcelona","phone":"932 60 75 00","web":"http://www.bellvitgehospital.cat/"},
{"id":82,"name":"Hospital Universitari de Sant Joan de Reus","lat":41.1454148,"lng":1.1222359,"city":"Reus","address":"Av. Dr. Josep Laporte, 1","state":"Tarragona","phone":"977 31 03 00","web":"http://www.hospitalsantjoan.cat/"},
{"id":83,"name":"Hospital Universitari Germans Trias i Pujol de Badalona","lat":41.471971,"lng":2.234999,"city":"Badalona","address":"Ct. Canyet, s/n","state":"Barcelona","phone":"93 465 12 00","web":"http://www.gencat.cat/ics/germanstrias/"},
{"id":84,"name":"Hospital Universitari i Politècnic la Fe","lat":39.472354,"lng":-0.418663,"city":"Valencia","address":"Bulevar Sur, s/n","state":"València","phone":"961 24 40 00","web":"http://www.lafe.san.gva.es/home"},
{"id":85,"name":"Hospital Universitari Joan XXIII de Tarragona","lat":41.123874,"lng":1.238892,"city":"Tarragona","address":"Doctor Mallafré Guasch, 4","state":"Tarragona","phone":"977 29 58 00","web":"http://www.icscampdetarragona.cat/webg/index.php?page=htvc"},
{"id":86,"name":"Hospital Universitari Mútua de Terrassa","lat":41.563707,"lng":2.017053,"city":"Terrassa","address":"PL. Doctor Robert, 5","state":"Barcelona","phone":"937 36 50 50","web":"http://www.mutuaterrassa.cat/"},
{"id":87,"name":"Hospital Universitari Quirón Dexeus ","lat":41.38518,"lng":2.125618,"city":"Barcelona","address":"Calle Sabino Arana, 5-19","state":"Barcelona","phone":"932 27 47 47","web":"http://www.quiron.es/es/barcelona_dexeus"},
{"id":88,"name":"Hospital Universitari Sagrat Cor","lat":41.388789,"lng":2.146376,"city":"Barcelona","address":"Viladomat, 288","state":"Barcelona","phone":"933 22 11 11","web":"http://www.hscor.com/ca/"},
{"id":89,"name":"Hospital Universitario 12 de Octubre","lat":40.407952,"lng":-3.652713,"city":"Madrid","address":"Av. de Córdoba, s/n","state":"Madrid","phone":"913 90 80 00","web":"http://www.madrid.org/cs/Satellite?pagename=Hospital12Octubre/Page/H12O_home"},
{"id":90,"name":"Hospital Universitario Araba (sede Txagorritxu)","lat":42.855511,"lng":-2.688337,"city":"Vitoria-Gasteiz","address":"José Atxotegui, s/n","state":"Álava","phone":"945 00 70 00","web":"http://www.osakidetza.euskadi.eus/r85-ghhua00/es/"},
{"id":91,"name":"Hospital Universitario Central de Asturias","lat":43.357705,"lng":-5.865933,"city":"Oviedo","address":"Celestino Villamil, s/n","state":"Asturias","phone":"985 10 80 00","web":"http://www.hca.es/huca/web/index.asp"},
{"id":92,"name":"Hospital Universitario de Cruces","lat":43.280721,"lng":-2.9837,"city":"Barakaldo","address":"Pza de Cruces, 12","state":"Vizcaya","phone":"946 00 60 00","web":"http://www.hospitalcruces.com/Index.asp?lng=es"},
{"id":93,"name":"Hospital Universitario de Fuenlabrada","lat":40.28734,"lng":-3.81686,"city":"Fuenlabrada","address":"Camino del Molino, 2","state":"Madrid","phone":"916 00 60 00","web":"http://www.madrid.org/cs/Satellite?language=es&pagename=HospitalFuenlabrada/Page/HFLA_home"},
{"id":94,"name":"Hospital Universitario de Getafe","lat":40.304611,"lng":-3.732253,"city":"Getafe","address":"Crtra de Toledo, km 12.5","state":"Madrid","phone":"916 83 93 60","web":"http://www.madrid.org/cs/Satellite?pagename=HospitalGetafe/Page/HGET_home"},
{"id":95,"name":"Hospital Universitario de Guadalajara","lat":40.621037,"lng":-3.156774,"city":"Guadalajara","address":"Donantes de Sangre, s/n","state":"Guadalajara","phone":"949 20 92 00","web":"http://hugu.sescam.jccm.es/"},
{"id":96,"name":"Hospital Universitario de la Princesa","lat":40.434424,"lng":-3.675721,"city":"Madrid","address":"Diego de León, 62","state":"Madrid","phone":"915 20 22 00","web":"http://www.madrid.org/cs/Satellite?pagename=HospitalLaPrincesa/Page/HPRI_home"},
{"id":97,"name":"Hospital Universitario de la Ribera","lat":39.161646,"lng":-0.426301,"city":"Alzira","address":"Crtra Corbera, Km 1","state":"València","phone":"962 45 81 00","web":"http://www.hospital-ribera.com/"},
{"id":98,"name":"Hospital Universitario dr. Peset","lat":39.452581,"lng":-0.393151,"city":"Valencia","address":"Av. Gaspar Aguilar, 90","state":"València","phone":"961 62 23 00","web":""},
{"id":99,"name":"Hospital Universitario Fundación Alcorcón","lat":40.34934,"lng":-3.83774,"city":"Alcorcón","address":"Budapest, 1","state":"Madrid","phone":"916 21 94 00","web":"http://www.madrid.org/cs/Satellite?language=es&pagename=HospitalFundacionHospitalAlcorcon%2FPage%2FHALC_home"},
{"id":101,"name":"Hospital Universitario Infanta Cristina","lat":40.219465,"lng":-3.781537,"city":"Parla","address":"Av. 9 de Junio, 2","state":"Madrid","phone":"911 91 30 00","web":"http://www.madrid.org/cs/Satellite?language=es&pagename=HospitalInfantaCristina/Page/HSUR_home"},
{"id":102,"name":"Hospital Universitario Infanta Sofía","lat":40.55772,"lng":-3.61027,"city":"San Sebastián de los Reyes","address":"Paseo de Europa, 34","state":"Madrid","phone":"911 91 40 00","web":"http://www.madrid.org/cs/Satellite?language=es&pagename=HospitalInfantaSofia/Page/HNOR_home"},
{"id":103,"name":"Hospital Universitario Insular de Gran Canaria","lat":28.070299,"lng":-15.417717,"city":"Las Palmas de Gran Canaria","address":"Avenida Marítima del Sur, s/n","state":"Las Palmas","phone":"928 44 40 00","web":"http://www3.gobiernodecanarias.org/sanidad/scs/organica.jsp?idCarpeta=04d48f0a-541c-11de-9665-998e1388f7ed"},
{"id":104,"name":"Hospital Universitario Los Arcos del Mar Menor","lat":37.810896,"lng":-0.856227,"city":"San Javier","address":"Paraje Torre Octavio, 54. Pozo Aledo","state":"Murcia","phone":"968 56 50 00","web":"http://www.murciasalud.es/seccion.php?idsec=388"},
{"id":105,"name":"Hospital Universitario Marqués de Valdecilla","lat":43.457664,"lng":-3.82958,"city":"Santander","address":"Av. de Valdecilla, s/n","state":"Cantabria","phone":"942 20 25 20","web":"http://www.humv.es/"},
{"id":106,"name":"Hospital Universitario Miguel Servet","lat":41.634759,"lng":-0.901003,"city":"Zaragoza","address":"Pº de Isabel La Católica, 1-3","state":"Zaragoza","phone":"976 76 55 00","web":"http://sectorzaragozados.salud.aragon.es/"},
{"id":107,"name":"Hospital Universitario Puerta de Hierro Majadahonda","lat":40.45745,"lng":-3.80533,"city":"Majadahonda","address":"Joaquín Rodrígo, 2","state":"Madrid","phone":"911 91 60 00","web":"http://www.madrid.org/cs/Satellite?pagename=HospitalPuertaHierroMaja/Page/HPHM_home"},
{"id":108,"name":"Hospital Universitario Rio Hortega","lat":41.62982,"lng":-4.71188,"city":"Valladolid","address":"Dulzaina, 2","state":"Valladolid","phone":"983 42 04 00","web":"http://www.saludcastillayleon.es/HRHortega/es"},
{"id":109,"name":"Hospital Universitario San Juan de Alicante","lat":38.394034,"lng":-0.439863,"city":"Sant Joan d'Alacant","address":"Ctra. Alicante-Valencia s/n","state":"Alacant","phone":"965 16 94 00","web":"http://www.dep17.san.gva.es/"},
{"id":110,"name":"Hospital Universitario Severo Ochoa","lat":40.322977,"lng":-3.771046,"city":"Leganés","address":"Av. de Orellana, s/n","state":"Madrid","phone":"914 81 80 00","web":"http://www.madrid.org/cs/Satellite?pagename=HospitalSeveroOchoa/Page/HSEV_home&c=Page&site=HospitalSeveroOchoa"},
{"id":111,"name":"Hospital Universitario Virgen de la Arrixaca","lat":37.935337,"lng":-1.163361,"city":"Murcia","address":"Ctra. Madrid-Cartagena, s/n. (El Palmar)","state":"Murcia","phone":"968 36 95 00","web":"http://www.murciasalud.es/seccion.php?idsec=347"},
{"id":112,"name":"Hospital Verge de la Cinta de Tortosa","lat":40.81164,"lng":0.5242,"city":"Tortosa","address":"Esplanetes, 44","state":"Tarragona","phone":"977 51 91 00","web":"http://www.gencat.cat/ics/infocorp/gerencies/hospitals/TortosaVergeCinta_main.htm"},
{"id":113,"name":"Hospital Virgen de Los Lirios","lat":38.698707,"lng":-0.481094,"city":"Alcoy/Alcoi","address":"Polígono Caramanchel, s/n","state":"Alacant","phone":"965 53 74 00","web":"http://alcoy.san.gva.es/cas/hospital/datos.htm"},
{"id":114,"name":"Hospital Virgen del Puerto","lat":39.475277,"lng":-6.372425,"city":"Plasencia","address":"Paraje Valcorchero, s/n","state":"Cáceres","phone":"927 428 300 / 927 428 500","web":""},
{"id":115,"name":"Hospitals Vall d'Hebron","lat":41.428033,"lng":2.143488,"city":"Barcelona","address":"Ps Vall d'Hebron, 119-129","state":"Barcelona","phone":"93 489 30 00 / 93 274 60 00","web":"http://www.vhebron.net/"}
]